{
  "points": [
    {
      "pointID": 1,
      "altitude": 100,
      "name": "Al Sap",
      "latitude": "45.95233",
      "description": "description",
      "longitude": "8.4457",
      "address": "Alpe del Sap, 215",
      "country": "Italy",
      "municipality": "Angrogna",
      "province": "Torino",
      "type": "hut",
      "website": "www.website.com",
      "phoneNumber": "123456789",
      "email": "hut@mail.com",
      "bedspace": 50,
      "creatorID": 3
    },
    {
      "pointID": 3,
      "altitude": 100,
      "description": "description",
      "name": "Barbara Lowrie",
      "latitude": "45.95663",
      "longitude": "8.45105",
      "address": "Pis della Rossa",
      "country": "Italy",
      "municipality": "Bobbio Pellice",
      "province": "Torino",
      "type": "hut",
      "website": "www.website.com",
      "phoneNumber": "123456789",
      "email": "hut@mail.com",
      "bedspace": 49,
      "creatorID": 3
    },
    {
      "pointID": 6,
      "altitude": 100,
      "name": "Giuseppe Melano Casa Canada",
      "description": "description",
      "latitude": "45.9461",
      "longitude": "8.46432",
      "address": "Rocca Sbarua",
      "country": "Italy",
      "municipality": "Frossasco",
      "province": "Torino",
      "type": "hut",
      "website": "www.website.com",
      "phoneNumber": "123456789",
      "email": "hut@mail.com",
      "bedspace": 45,
      "creatorID": 3
    },
    {
      "pointID": 7,
      "altitude": 100,
      "name": "Battaglione Alpini Monte Granero",
      "latitude": "45.95807",
      "description": "description",
      "longitude": "8.44827",
      "address": "Adrec del Laus",
      "country": "Italy",
      "municipality": "Bobbio Pellice",
      "province": "Torino",
      "type": "hut",
      "website": "www.website.com",
      "phoneNumber": "123456789",
      "email": "hut@mail.com",
      "bedspace": 44,
      "creatorID": 3
    },
    {
      "pointID": 8,
      "altitude": 100,
      "name": "Troncea",
      "latitude": "45.94658",
      "description": "description",
      "longitude": "8.46168",
      "address": "Frazione Troncea",
      "country": "Italy",
      "municipality": "Pragelato",
      "province": "Torino",
      "type": "hut",
      "website": "www.website.com",
      "phoneNumber": "123456789",
      "email": "hut@mail.com",
      "bedspace": 50,
      "creatorID": 3
    },
    {
      "pointID": 9,
      "altitude": 100,
      "description": "description",
      "name": "Severino Bessone al Lago Verde",
      "latitude": "45.95653",
      "longitude": "8.44765",
      "address": "Founset, Lago",
      "country": "Italy",
      "municipality": "Prali",
      "province": "Torino",
      "type": "hut",
      "website": "www.website.com",
      "phoneNumber": "123456789",
      "email": "hut@mail.com",
      "bedspace": 50,
      "creatorID": 3
    },
    {
      "pointID": 10,
      "altitude": 100,
      "name": "Willy Jervis",
      "description": "description",
      "latitude": "45.95039",
      "longitude": "8.46165",
      "address": "Conca del Prà",
      "country": "Italy",
      "municipality": "Bobbio Pellice",
      "province": "Torino",
      "type": "hut",
      "website": "www.website.com",
      "phoneNumber": "123456789",
      "email": "hut@mail.com",
      "bedspace": 50,
      "creatorID": 3
    },
    {
      "pointID": 11,
      "name": "Salza",
      "altitude": 100,
      "latitude": "44.97762748047302",
      "longitude": "6.839397138848224",
      "address": "Borgata Didietro, 16",
      "description": "description",
      "country": "Italy",
      "municipality": "Salza di Pinerolo",
      "province": "Torino",
      "type": "hut",
      "website": "www.website.com",
      "phoneNumber": "123456789",
      "email": "hut@mail.com",
      "bedspace": 50,
      "creatorID": 3
    },
    {
      "pointID": 12,
      "name": "Ciabota del Prà",
      "altitude": 100,
      "latitude": "44.779813801333994",
      "longitude": "7.036207939162996",
      "address": "Prà del Mirabores",
      "country": "Italy",
      "description": "description",
      "municipality": "Bobbio Pellice",
      "province": "Torino",
      "type": "hut",
      "website": "www.website.com",
      "phoneNumber": "123456789",
      "email": "hut@mail.com",
      "bedspace": 50,
      "creatorID": 3
    },
    {
      "pointID": 13,
      "altitude": 100,
      "name": "La Foresteria di Massello",
      "latitude": "44.96606539680167",
      "longitude": "7.055764188864649",
      "address": "Borgata Molino, 4",
      "country": "Italy",
      "description": "description",
      "municipality": "Massello",
      "province": "Torino",
      "type": "hut",
      "website": "www.website.com",
      "phoneNumber": "123456789",
      "email": "hut@mail.com",
      "bedspace": 50,
      "creatorID": 3
    },
    {
      "pointID": 14,
      "name": "Pzit Rei",
      "altitude": 100,
      "latitude": "45.07289553862993",
      "longitude": "7.020671525603902",
      "description": "description",
      "address": "Via della Rocca, 1",
      "country": "Italy",
      "municipality": "Usseaux",
      "province": "Torino",
      "type": "hut",
      "website": "www.website.com",
      "phoneNumber": "123456789",
      "email": "hut@mail.com",
      "bedspace": 50,
      "creatorID": 3
    },
    {
      "pointID": 15,
      "altitude": 100,
      "name": "Selleries",
      "description": "description",
      "latitude": "45.05829677248282",
      "longitude": "7.118452955805334",
      "address": "Alpe Selleries",
      "country": "Italy",
      "municipality": "Roure",
      "province": "Torino",
      "type": "hut",
      "website": "www.website.com",
      "phoneNumber": "123456789",
      "email": "hut@mail.com",
      "bedspace": 50,
      "creatorID": 3
    },
    {
      "pointID": 16,
      "name": "Villanova",
      "latitude": "44.81076401991162",
      "altitude": 100,
      "description": "description",
      "longitude": "7.056185604385492",
      "address": "Borgata Villanova",
      "country": "Italy",
      "municipality": "Bobbio Pellice",
      "province": "Torino",
      "type": "hut",
      "website": "www.website.com",
      "phoneNumber": "123456789",
      "email": "hut@mail.com",
      "bedspace": 50,
      "creatorID": 3
    },
    {
      "pointID": 17,
      "name": "Alpe Balma",
      "latitude": "45.051410442504775",
      "longitude": "7.190947337226893",
      "address": "Alpe della Balma",
      "description": "description",
      "altitude": 100,
      "country": "Italy",
      "municipality": "Coazze",
      "province": "Torino",
      "type": "hut",
      "website": "www.website.com",
      "phoneNumber": "123456789",
      "email": "hut@mail.com",
      "bedspace": 50,
      "creatorID": 3
    },
    {
      "pointID": 18,
      "name": "Alpeggio Toglie",
      "latitude": "45.100620071304604",
      "longitude": "7.121516296162575",
      "altitude": 100,
      "address": "Toglie",
      "description": "description",
      "country": "Italy",
      "municipality": "Mattie",
      "province": "Torino",
      "type": "hut",
      "website": "www.website.com",
      "phoneNumber": "123456789",
      "email": "hut@mail.com",
      "bedspace": 50,
      "creatorID": 3
    },
    {
      "pointID": 19,
      "name": "Avanzà",
      "latitude": "45.181048386933924",
      "altitude": 100,
      "description": "description",
      "longitude": " 6.949786842590845",
      "address": "Passo Avanzà",
      "country": "Italy",
      "municipality": "Venaus",
      "province": "Torino",
      "type": "hut",
      "website": "www.website.com",
      "phoneNumber": "123456789",
      "email": "hut@mail.com",
      "bedspace": 50,
      "creatorID": 3
    },
    {
      "pointID": 20,
      "name": "Baita Gimont",
      "altitude": 100,
      "latitude": "44.941458755424115",
      "longitude": " 6.760199666306238",
      "description": "description",
      "address": "Pian Gimont",
      "country": "Italy",
      "municipality": "Cesana",
      "province": "Torino",
      "type": "hut",
      "website": "www.website.com",
      "phoneNumber": "123456789",
      "email": "hut@mail.com",
      "bedspace": 50,
      "creatorID": 3
    },
    {
      "pointID": 21,
      "altitude": 100,
      "name": "Cà d'Asti",
      "latitude": "45.20134583464137",
      "longitude": "7.074022245228914",
      "address": "Cà d'Asti",
      "description": "description",
      "country": "Italy",
      "municipality": "Mompanero",
      "province": "Torino",
      "type": "hut",
      "website": "www.website.com",
      "phoneNumber": "123456789",
      "email": "hut@mail.com",
      "bedspace": 50,
      "creatorID": 3
    },
    {
      "pointID": 2,
      "name": "park#1",
      "latitude": "45.181048386933924",
      "longitude": "6.949786842590845",
      "address": "address2",
      "country": "Italy",
      "altitude": 100,
      "description": "description",
      "municipality": "Settimo",
      "province": "Torino",
      "type": "parkinglot",
      "carspace": 100,
      "creatorID": 3
    },
    {
      "pointID": 4,
      "name": "park#2",
      "altitude": 100,
      "latitude": "123",
      "longitude": "456",
      "address": "address4",
      "country": "Italy",
      "municipality": "Settimo",
      "description": "description",
      "province": "Torino",
      "type": "parkinglot",
      "carspace": 100,
      "creatorID": 3
    },
    {
      "pointID": 22,
      "altitude": 100,
      "name": "park#3",
      "latitude": "123",
      "longitude": "456",
      "address": "address22",
      "country": "Italy",
      "municipality": "Trecate",
      "province": "Novara",
      "description": "description",
      "type": "parkinglot",
      "carspace": 100,
      "creatorID": 3
    },
    {
      "pointID": 23,
      "name": "park#4",
      "latitude": "123",
      "longitude": "456",
      "altitude": 100,
      "address": "address23",
      "country": "Italy",
      "municipality": "Settimo",
      "province": "Torino",
      "description": "description",
      "type": "parkinglot",
      "carspace": 100,
      "creatorID": 3
    },
    {
      "pointID": 24,
      "name": "park#5",
      "latitude": "123",
      "altitude": 100,
      "longitude": "456",
      "address": "address24",
      "description": "description",
      "country": "Italy",
      "municipality": "Refrancore",
      "province": "Asti",
      "type": "parkinglot",
      "carspace": 100,
      "creatorID": 3
    },
    {
      "pointID": 25,
      "name": "park#6",
      "altitude": 100,
      "latitude": "123",
      "description": "description",
      "longitude": "456",
      "address": "address25",
      "country": "Italy",
      "municipality": "Settimo",
      "province": "Torino",
      "type": "parkinglot",
      "carspace": 100,
      "creatorID": 3
    },
    {
      "pointID": 26,
      "altitude": 100,
      "name": "park#7",
      "description": "description",
      "latitude": "123",
      "longitude": "456",
      "address": "address26",
      "country": "Italy",
      "municipality": "Candelo",
      "province": "Biella",
      "type": "parkinglot",
      "carspace": 100,
      "creatorID": 3
    },
    {
      "pointID": 27,
      "name": "park#8",
      "latitude": "123",
      "altitude": 100,
      "longitude": "456",
      "address": "address27",
      "country": "Italy",
      "municipality": "Settimo",
      "province": "Torino",
      "description": "description",
      "type": "parkinglot",
      "carspace": 100,
      "creatorID": 3
    },
    {
      "pointID": 28,
      "name": "park#9",
      "altitude": 100,
      "latitude": "123",
      "longitude": "456",
      "address": "address28",
      "country": "Italy",
      "description": "description",
      "municipality": "Candelo",
      "province": "Biella",
      "type": "parkinglot",
      "carspace": 100,
      "creatorID": 3
    },
    {
      "pointID": 29,
      "name": "park#10",
      "latitude": "123",
      "longitude": "456",
      "altitude": 100,
      "address": "address29",
      "country": "Italy",
      "municipality": "Settimo",
      "description": "description",
      "province": "Torino",
      "type": "parkinglot",
      "carspace": 100,
      "creatorID": 3
    },
    {
      "pointID": 30,
      "name": "park#11",
      "latitude": "123",
      "altitude": 100,
      "longitude": "456",
      "address": "address30",
      "description": "description",
      "country": "Italy",
      "municipality": "Refrancore",
      "province": "Asti",
      "type": "parkinglot",
      "carspace": 100,
      "creatorID": 3
    },
    {
      "pointID": 31,
      "name": "park#12",
      "altitude": 100,
      "latitude": "123",
      "description": "description",
      "longitude": "456",
      "address": "address31",
      "country": "Italy",
      "municipality": "Settimo",
      "province": "Torino",
      "type": "parkinglot",
      "carspace": 100,
      "creatorID": 3
    },
    {
      "pointID": 32,
      "altitude": 100,
      "name": "park#13",
      "latitude": "123",
      "longitude": "456",
      "description": "description",
      "address": "address32",
      "country": "Italy",
      "municipality": "Trecate",
      "province": "Novara",
      "type": "parkinglot",
      "carspace": 100,
      "creatorID": 3
    },
    {
      "pointID": 33,
      "name": "park#14",
      "latitude": "123",
      "altitude": 100,
      "longitude": "456",
      "description": "description",
      "address": "address33",
      "country": "Italy",
      "municipality": "Settimo",
      "province": "Torino",
      "type": "parkinglot",
      "carspace": 100,
      "creatorID": 3
    },
    {
      "pointID": 5,
      "name": "generic#1",
      "latitude": "123",
      "longitude": "456",
      "address": "address5",
      "altitude": 100,
      "description": "description",
      "country": "Italy",
      "municipality": "Settimo",
      "province": "Torino",
      "type": "generic",
      "creatorID": 3
    },
    {
      "pointID": 34,
      "name": "generic#2",
      "latitude": "123",
      "longitude": "456",
      "address": "address34",
      "description": "description",
      "altitude": 100,
      "country": "Italy",
      "municipality": "Refrancore",
      "province": "Asti",
      "type": "generic",
      "creatorID": 3
    },
    {
      "pointID": 35,
      "name": "generic#3",
      "latitude": "123",
      "longitude": "456",
      "address": "address35",
      "description": "description",
      "altitude": 100,
      "country": "Italy",
      "municipality": "Refrancore",
      "province": "Asti",
      "type": "generic",
      "creatorID": 3
    },
    {
      "pointID": 36,
      "name": "generic#4",
      "latitude": "123",
      "altitude": 100,
      "longitude": "456",
      "address": "address36",
      "description": "description",
      "country": "Italy",
      "municipality": "Candelo",
      "province": "Biella",
      "type": "generic",
      "creatorID": 3
    },
    {
      "pointID": 37,
      "name": "generic#5",
      "latitude": "123",
      "longitude": "456",
      "address": "address37",
      "country": "Italy",
      "altitude": 100,
      "municipality": "Trecate",
      "description": "description",
      "province": "Novara",
      "type": "generic",
      "creatorID": 3
    },
    {
      "pointID": 38,
      "name": "generic#6",
      "latitude": "123",
      "longitude": "456",
      "address": "address38",
      "country": "Italy",
      "municipality": "Candelo",
      "description": "description",
      "province": "Biella",
      "altitude": 100,
      "type": "generic",
      "creatorID": 3
    },
    {
      "pointID": 39,
      "name": "generic#7",
      "latitude": "123",
      "longitude": "456",
      "address": "address39",
      "country": "Italy",
      "altitude": 100,
      "municipality": "Trecate",
      "province": "Novara",
      "description": "description",
      "type": "generic",
      "creatorID": 3
    },
    {
      "pointID": 40,
      "name": "generic#8",
      "latitude": "123",
      "altitude": 100,
      "longitude": "456",
      "address": "address40",
      "description": "description",
      "country": "Italy",
      "municipality": "Candelo",
      "province": "Biella",
      "type": "generic",
      "creatorID": 3
    },
    {
      "pointID": 41,
      "name": "generic#9",
      "latitude": "123",
      "longitude": "456",
      "altitude": 100,
      "address": "address41",
      "description": "description",
      "country": "Italy",
      "municipality": "Refrancore",
      "province": "Asti",
      "type": "generic",
      "creatorID": 3
    },
    {
      "pointID": 42,
      "name": "generic#10",
      "latitude": "123",
      "longitude": "456",
      "altitude": 100,
      "description": "description",
      "address": "address42",
      "country": "Italy",
      "municipality": "Trecate",
      "province": "Novara",
      "type": "generic",
      "creatorID": 3
    },
    {
      "pointID": 43,
      "altitude": 100,
      "name": "generic#11",
      "latitude": "123",
      "longitude": "456",
      "description": "description",
      "address": "address43",
      "country": "Italy",
      "municipality": "Refrancore",
      "province": "Asti",
      "type": "generic",
      "creatorID": 3
    },
    {
      "pointID": 44,
      "altitude": 100,
      "name": "generic#12",
      "latitude": "123",
      "longitude": "456",
      "address": "address44",
      "country": "Italy",
      "description": "description",
      "municipality": "Settimo",
      "province": "Torino",
      "type": "generic",
      "creatorID": 3
    },
    {
      "pointID": 45,
      "name": "generic#13",
      "altitude": 100,
      "latitude": "123",
      "longitude": "456",
      "address": "address45",
      "description": "description",
      "country": "Italy",
      "municipality": "Trecate",
      "province": "Novara",
      "type": "generic",
      "creatorID": 3
    },
    {
      "pointID": 46,
      "name": "generic#14",
      "latitude": "123",
      "longitude": "456",
      "altitude": 100,
      "description": "description",
      "address": "address46",
      "country": "Italy",
      "municipality": "Settimo",
      "province": "Torino",
      "type": "generic",
      "creatorID": 3
    },
    {
      "pointID": 47,
      "name": "generic#15",
      "altitude": 100,
      "latitude": "123",
      "description": "description",
      "longitude": "456",
      "address": "address47",
      "country": "Italy",
      "municipality": "Refrancore",
      "province": "Asti",
      "type": "generic",
      "creatorID": 3
    },
    {
      "pointID": 48,
      "name": "generic#16",
      "altitude": 100,
      "latitude": "123",
      "longitude": "456",
      "address": "address48",
      "description": "description",
      "country": "Italy",
      "municipality": "Settimo",
      "province": "Torino",
      "type": "generic",
      "creatorID": 3
    },
    {
      "pointID": 49,
      "name": "generic#17",
      "latitude": "123",
      "longitude": "456",
      "address": "address49",
      "description": "description",
      "country": "Italy",
      "municipality": "Refrancore",
      "altitude": 100,
      "province": "Asti",
      "type": "generic",
      "creatorID": 3
    },
    {
      "pointID": 50,
      "name": "generic#18",
      "latitude": "123",
      "longitude": "456",
      "description": "description",
      "address": "address50",
      "altitude": 100,
      "country": "Italy",
      "municipality": "Settimo",
      "province": "Torino",
      "type": "generic",
      "creatorID": 3
    }
  ]
}